City,Cloudiness,Country,Date,Humidity,Lat,Lng,Max Temp,Wind Speed
Nikolskoye,75,RU,1580270243,92,59.7,30.79,30.2,11.18
Ozinki,100,RU,1580270554,91,51.18,49.68,11.95,13.06
Rikitea,100,PF,1580270485,78,-23.12,-134.97,79.79,6.22
Vaini,75,TO,1580270072,94,-21.2,-175.2,78.8,5.82
Talnakh,100,RU,1580270159,78,69.49,88.4,8.6,6.71
Meulaboh,88,ID,1580270560,80,4.14,96.13,79.54,5.12
Tuktoyaktuk,90,CA,1580270071,75,69.45,-133.04,-18.4,5.82
Bonavista,100,CA,1580270562,88,48.65,-53.11,28.99,1.99
Teknaf,0,BD,1580270563,46,20.86,92.31,69.44,4.03
Zhezkazgan,75,KZ,1580270565,83,47.8,67.71,-5.8,6.71
Heihe,0,CN,1580270567,60,50.24,127.49,8.6,8.95
Bredasdorp,100,ZA,1580270097,88,-34.53,20.04,66.2,4.81
Kabin Buri,55,TH,1580270569,55,13.95,101.72,85.41,2.59
Loreto,0,MX,1580270385,36,22.27,-101.97,53.94,11.61
Hamilton,90,US,1580270227,80,39.18,-84.53,34.0,0.63
Hithadhoo,76,MV,1580270251,78,-0.6,73.08,81.12,15.68
George Town,20,MY,1580270174,59,5.41,100.34,89.6,10.29
New Norfolk,40,AU,1580270497,34,-42.78,147.06,80.6,11.41
Hobart,40,AU,1580270107,34,-42.88,147.33,80.6,11.41
Isangel,90,VU,1580270246,66,-19.55,169.27,86.0,4.7
Lagoa,12,PT,1580270284,91,39.05,-27.98,62.64,22.48
Mega,100,ET,1580270583,74,4.05,38.3,67.3,8.52
Mabaruma,22,GY,1580270585,97,8.2,-59.78,71.17,2.37
Ushuaia,75,AR,1580270066,81,-54.8,-68.3,42.8,28.86
Alepe,64,CI,1580270589,94,5.5,-3.66,78.8,3.36
Kaitangata,100,NZ,1580270277,74,-46.28,169.85,62.01,17.0
Blackwater,100,AU,1580270591,55,-23.58,148.88,87.75,12.26
Mossamedes,100,AO,1580270074,77,-15.2,12.15,75.15,7.81
Monrovia,20,LR,1580270261,94,6.3,-10.8,75.2,4.43
Mount Isa,90,AU,1580270595,100,-20.73,139.5,77.0,12.75
Rocha,0,UY,1580270426,86,-34.48,-54.33,61.48,10.2
Tasiilaq,100,GL,1580270248,80,65.61,-37.64,30.2,23.04
Liwale,100,TZ,1580270598,99,-9.77,37.93,69.66,1.97
Honningsvag,0,NO,1580270287,66,70.98,25.97,21.74,28.77
Jutai,88,BR,1580270602,98,-5.18,-68.9,72.7,1.19
Nola,75,IT,1580270604,82,40.92,14.53,57.0,3.36
Dikson,100,RU,1580270243,95,73.51,80.55,-18.06,14.38
Fare,62,PF,1580270494,73,-16.7,-151.02,83.01,6.49
Constantine,34,DZ,1580270400,80,36.37,6.61,39.2,2.24
Port Alfred,60,ZA,1580270610,85,-33.59,26.89,66.99,5.01
Port-Gentil,20,GA,1580270611,77,-0.72,8.78,82.67,7.07
Mataura,96,NZ,1580270073,88,-46.19,168.86,54.0,14.0
Hasaki,20,JP,1580270310,72,35.73,140.83,63.0,10.29
Inyonga,100,TZ,1580270616,98,-6.72,32.07,62.64,4.54
Pangnirtung,7,CA,1580270284,88,66.15,-65.71,-28.75,4.25
Jamestown,90,US,1580270103,86,42.1,-79.24,32.0,11.41
Hambantota,75,LK,1580270249,94,6.12,81.12,78.8,3.36
Saint-Philippe,10,RE,1580270131,57,-21.36,55.77,79.0,8.05
Thung Song,40,TH,1580270623,84,8.16,99.68,87.8,2.24
Moyobamba,1,PE,1580270624,97,-6.05,-76.97,65.8,0.98
Albany,90,US,1580270088,79,42.6,-73.97,32.0,10.29
Lodwar,100,KE,1580270262,71,3.12,35.6,77.5,13.62
Bengkulu,100,ID,1580270177,94,-3.8,102.27,72.45,13.62
San Patricio,0,MX,1580270496,63,19.22,-104.7,76.05,4.29
Kolyvan,75,RU,1580270633,78,55.31,82.74,12.2,20.13
Kodiak,90,US,1580270202,73,57.79,-152.41,24.8,23.04
Bluff,100,NZ,1580270098,88,-46.6,168.33,54.0,14.0
Pierre,90,US,1580270637,100,44.37,-100.35,30.0,4.7
Cayenne,75,GF,1580269966,83,4.93,-52.33,80.6,6.93
Guerrero Negro,0,MX,1580270639,65,27.98,-114.06,63.46,19.69
Castro,33,BR,1580270221,99,-24.79,-50.01,63.79,5.88
Chirilagua,0,SV,1580270644,78,13.22,-88.14,79.75,12.48
Port Elizabeth,75,ZA,1580270645,77,-33.92,25.57,68.0,13.87
Bandundu,63,CD,1580270646,67,-3.32,17.37,75.38,3.36
Smila,100,UA,1580270648,97,49.22,31.89,36.93,6.08
Busselton,32,AU,1580270238,28,-33.65,115.33,84.0,7.54
San Cristobal,40,VE,1580270650,83,7.77,-72.22,77.0,2.24
Bereda,75,ES,1580270251,87,43.27,-7.54,57.2,5.82
Sobolevo,100,RU,1580270281,95,54.43,31.9,29.57,11.61
Yellowknife,90,CA,1580270091,83,62.46,-114.35,-2.0,4.7
Hermanus,89,ZA,1580270235,97,-34.42,19.23,64.0,3.0
Provideniya,2,RU,1580270085,58,64.38,-173.3,-5.8,4.61
Odobesti,75,RO,1580270659,86,45.77,27.05,33.8,9.17
Sola,90,VU,1580270274,88,-13.88,167.55,80.6,13.71
Punta Arenas,40,CL,1580270598,81,-53.15,-70.92,44.6,23.04
Chokurdakh,100,RU,1580270176,97,70.63,147.92,-19.61,10.6
Souillac,75,MU,1580270167,94,-20.52,57.52,75.99,1.9
Mudu,0,CN,1580270665,66,31.25,120.51,45.0,17.76
Jacareacanga,98,BR,1580270666,88,-6.22,-57.75,74.19,1.3
Airai,55,TL,1580270203,49,-8.93,125.41,86.11,3.89
Atuona,32,PF,1580270239,79,-9.8,-139.03,80.91,13.62
Kruisfontein,89,ZA,1580270078,78,-34.0,24.73,65.41,8.19
Assiniboia,16,CA,1580270671,83,49.63,-105.98,17.06,3.22
Marawi,37,PH,1580270428,81,8.0,124.29,84.0,8.01
Juegang,0,CN,1580270675,63,32.32,121.19,46.99,1.01
San Felipe,40,VE,1580270676,96,10.34,-68.74,69.98,1.25
Camana,97,PE,1580270677,86,-16.62,-72.71,67.71,2.59
Leningradskiy,100,RU,1580270084,95,69.38,178.42,-7.01,3.51
Portland,90,US,1580270052,81,45.52,-122.68,50.0,5.82
Bouna,96,CI,1580270680,15,9.27,-3.0,71.08,3.18
Khandyga,0,RU,1580270273,95,62.67,135.6,-25.42,0.78
Rovaniemi,75,FI,1580270298,85,66.5,25.72,12.2,13.87
Chimore,50,BO,1580270684,91,-16.98,-65.13,73.11,1.63
Saskylakh,100,RU,1580270242,98,71.92,114.08,-10.16,7.76
Guaiuba,40,BR,1580270686,78,-4.04,-38.64,82.0,2.24
Poum,0,NC,1580270228,79,-20.23,164.02,79.66,19.77
Mekhe,14,SN,1580270688,77,15.11,-16.62,71.6,10.29
Contamana,0,PE,1580270690,67,-7.33,-75.02,79.79,2.86
Veshenskaya,100,RU,1580270692,95,49.63,41.73,33.82,10.67
College,20,US,1580269862,73,64.86,-147.8,-20.99,4.54
Khatanga,98,RU,1580270149,97,71.97,102.5,-12.26,0.56
Buchanan,20,LR,1580270288,94,5.88,-10.05,75.2,1.07
Gao,0,ML,1580270525,9,16.64,1.64,71.22,10.45
Petropavlovsk-Kamchatsky,17,RU,1580270449,63,53.05,158.65,28.4,6.71
Savonlinna,90,FI,1580270702,100,61.87,28.92,30.99,6.93
Hokitika,69,NZ,1580270703,87,-42.72,170.97,63.1,11.18
Thompson,90,CA,1580270127,85,55.74,-97.86,10.4,8.05
Barrow,1,US,1580270144,74,71.29,-156.79,-27.4,3.36
Leiyang,0,CN,1580270601,65,26.4,112.86,46.18,3.85
Belle Glade,40,US,1580270708,82,26.68,-80.67,64.99,4.7
Codrington,0,AU,1580270296,63,-38.27,141.97,68.23,4.43
Koslan,0,RU,1580270302,96,63.46,48.9,-10.37,4.32
Damghan,0,IR,1580270713,59,36.17,54.35,30.24,1.19
Hun,0,LY,1580270714,52,29.13,15.95,53.35,6.42
Cam Ranh,20,VN,1580270715,70,11.92,109.16,84.2,11.41
Hualmay,100,PE,1580270280,80,-11.1,-77.61,71.01,3.65
Matagami,90,CA,1580270719,91,49.75,-77.63,3.2,12.75
Ust'-Kulom,100,RU,1580270582,98,61.69,53.69,-12.73,4.34
Olafsvik,0,IS,1580270260,76,64.89,-23.71,30.63,14.2
Saint-Pierre,18,RE,1580270722,57,-21.34,55.48,79.0,8.05
Ketchikan,90,US,1580270416,81,55.34,-131.65,46.4,24.16
Sibolga,100,ID,1580270724,97,1.74,98.78,72.18,1.43
Sangar,92,RU,1580270297,83,63.92,127.47,-21.3,9.24
Itupiranga,75,BR,1580270727,100,-5.13,-49.33,77.0,4.7
Tuatapere,100,NZ,1580270248,88,-46.13,167.68,54.0,14.0
Puerto Ayora,39,EC,1580270498,9,-0.74,-90.35,73.99,3.0
Camacha,20,PT,1580270295,77,33.08,-16.33,60.8,5.82
Dingle,21,PH,1580270733,68,11.0,122.67,84.04,7.18
Cabo San Lucas,5,MX,1580270709,77,22.89,-109.91,66.2,4.7
Ponta do Sol,20,PT,1580270735,72,32.67,-17.1,59.0,6.93
Ekhabi,0,RU,1580270275,86,53.51,142.97,7.47,9.48
Presidencia Roque Saenz Pena,16,AR,1580270737,41,-26.79,-60.44,78.04,5.39
Sanary-sur-Mer,16,FR,1580270738,57,43.12,5.8,55.0,20.8
Nacala,73,MZ,1580270740,94,-14.54,40.67,72.05,4.9
Atambua,37,ID,1580270275,69,-9.11,124.89,84.33,6.6
Tat,96,HU,1580270742,74,47.74,18.65,37.99,11.41
Colac,0,AU,1580270744,40,-38.33,143.58,86.0,4.0
Sitka,90,US,1580270277,80,57.05,-135.33,39.2,17.22
Hofn,61,IS,1580270255,59,64.25,-15.21,38.52,15.23
Saint George,1,US,1580270570,48,37.1,-113.58,44.6,1.39
Los Llanos de Aridane,100,ES,1580270749,72,28.66,-17.92,60.8,6.93
Ludvika,100,SE,1580270751,100,60.15,15.19,35.01,8.05
Hilo,20,US,1580270752,57,19.73,-155.09,78.8,5.82
Mahebourg,75,MU,1580270726,94,-20.41,57.7,77.0,1.9
Ribeira Grande,78,PT,1580270754,94,38.52,-28.7,60.12,19.71
Salalah,0,OM,1580270741,22,17.02,54.09,64.4,14.99
Narsaq,38,GL,1580270283,78,60.92,-46.05,10.4,4.7
Mar del Plata,100,AR,1580270468,60,-38.0,-57.56,73.4,6.93
Port Hardy,90,CA,1580270713,81,50.7,-127.42,44.6,21.92
Grindavik,0,IS,1580270292,92,63.84,-22.43,28.4,8.05
Tual,57,ID,1580270275,78,-5.67,132.75,84.4,17.05
Boden,100,SE,1580270763,92,65.83,21.69,15.8,6.93
East London,0,ZA,1580270764,55,-33.02,27.91,64.4,6.93
Shkotovo,97,RU,1580270765,45,43.33,132.36,23.0,17.9
Coquimbo,90,CL,1580270253,82,-29.95,-71.34,64.4,4.7
Carnarvon,40,AU,1580270178,74,-24.87,113.63,80.6,19.46
Bathsheba,75,BB,1580270286,78,13.22,-59.52,78.8,17.22
Lompoc,1,US,1580270140,67,34.64,-120.46,61.0,5.82
Chui,0,UY,1580270219,85,-33.7,-53.46,68.63,13.29
Faanui,81,PF,1580270240,70,-16.48,-151.75,83.43,5.01
Butaritari,100,KI,1580270704,78,3.07,172.79,83.08,10.54
Ronne,100,DK,1580270775,100,55.1,14.71,41.0,16.11
Goundam,71,ML,1580270474,9,16.41,-3.67,71.58,9.35
Cape Town,75,ZA,1580270779,100,-33.93,18.42,68.0,8.05
Inhambane,0,MZ,1580270286,94,-23.86,35.38,68.0,6.11
Mana,40,GF,1580270737,91,5.66,-53.78,75.76,3.02
Ponta Delgada,75,PT,1580270784,82,37.73,-25.67,64.4,25.28
Kayes,100,ML,1580270785,35,14.0,-11.0,71.6,6.93
Upernavik,74,GL,1580270244,94,72.79,-56.15,-14.35,7.23
Mortka,0,RU,1580270787,93,59.33,66.02,-16.24,5.99
Plettenberg Bay,100,ZA,1580270788,80,-34.05,23.37,67.59,4.61
Minab,0,IR,1580270273,81,27.15,57.08,50.0,6.93
Churapcha,0,RU,1580270791,95,62.0,132.43,-23.96,4.99
Korhogo,77,CI,1580270792,13,9.45,-5.63,69.85,3.44
Qaanaaq,100,GL,1580270244,92,77.48,-69.36,-13.77,5.79
Port Hedland,83,AU,1580270769,59,-20.32,118.57,95.0,16.11
Miles City,90,US,1580270727,55,46.41,-105.84,35.6,3.36
Nanakuli,20,US,1580270796,61,21.39,-158.15,80.6,9.17
Oruro,51,BO,1580270559,50,-17.98,-67.15,50.13,9.26
Tucupita,0,VE,1580270799,98,9.06,-62.05,72.27,2.8
Mitsamiouli,100,KM,1580270800,76,-11.38,43.28,82.62,9.35
Ilulissat,100,GL,1580270239,59,69.22,-51.1,1.4,10.29
Aykhal,66,RU,1580270511,77,66.0,111.5,-0.4,4.47
Bara,21,NG,1580270803,18,10.37,10.73,58.96,6.11
Oudtshoorn,40,ZA,1580270804,88,-33.59,22.2,62.6,6.93
Rochester,90,US,1580270700,86,43.15,-77.62,32.0,5.82
Clyde River,1,CA,1580270806,74,70.47,-68.59,-23.8,4.7
Kapaa,1,US,1580270629,61,22.08,-159.32,78.8,3.36
Ereymentau,96,KZ,1580270810,97,51.62,73.1,-13.4,13.62
Uyemskiy,76,RU,1580270812,75,64.47,40.85,-14.8,4.47
Sao Joao da Barra,100,BR,1580270813,92,-21.64,-41.05,75.63,11.72
Amga,39,RU,1580270749,95,60.9,131.96,-20.47,2.42
Mecca,95,SA,1580270726,68,21.43,39.83,68.65,1.21
Ruteng,81,ID,1580270817,53,-8.61,120.47,86.23,4.16
Manbij,75,SY,1580270818,87,36.53,37.95,42.8,7.96
Nishifukuma,75,JP,1580270819,76,33.77,130.47,54.0,8.05
Mahibadhoo,0,MV,1580270265,73,3.78,72.97,80.73,12.64
Smiths Falls,90,CA,1580270821,85,44.9,-76.02,23.0,6.93
Pacifica,90,US,1580270822,87,37.61,-122.49,54.0,4.7
Kiryat Gat,75,IL,1580270510,93,31.61,34.76,53.6,5.82
Aksu,0,CN,1580270825,64,41.12,80.26,23.76,2.55
Khovd,0,MN,1580270301,60,48.01,91.64,9.19,1.92
Katsuura,20,JP,1580270264,63,35.13,140.3,64.4,13.87
Mareeba,40,AU,1580270273,88,-17.0,145.43,79.0,4.59
Suratgarh,0,IN,1580270829,81,29.32,73.9,51.66,3.94
Paamiut,83,GL,1580270468,56,61.99,-49.67,14.74,13.04
Arraial do Cabo,32,BR,1580270831,90,-22.97,-42.03,77.77,5.01
Litovko,86,RU,1580270832,84,49.24,135.17,11.12,3.96
Wattegama,75,LK,1580270834,94,6.8,81.48,78.8,3.36
Fortuna,90,US,1580270237,93,40.6,-124.16,50.0,3.36
Laguna,1,US,1580270043,100,38.42,-121.42,55.4,4.7
Susanville,40,US,1580270837,88,40.42,-120.65,39.2,3.36
Camacupa,100,AO,1580270778,98,-12.02,17.48,61.93,2.91
Pochutla,20,MX,1580270274,74,15.74,-96.47,78.8,11.39
Amapa,100,BR,1580270261,99,1.0,-52.0,72.73,2.04
Fairbanks,20,US,1580270727,73,64.84,-147.72,-18.0,4.7
Kollo,0,NE,1580270844,13,13.3,2.34,66.2,4.7
Otane,71,NZ,1580270845,61,-39.88,176.63,73.0,11.99
Nishihara,90,JP,1580270256,63,26.18,127.76,62.6,10.29
Ostashkov,100,RU,1580270847,94,57.15,33.11,30.04,7.67
Lima,75,PE,1580270729,88,-12.04,-77.03,75.2,9.17
Tiksi,99,RU,1580270849,87,71.69,128.87,-15.88,6.51
Cherskiy,100,RU,1580270851,96,68.75,161.3,-22.68,5.7
Cap-Chat,17,CA,1580270852,94,49.1,-66.68,3.99,2.91
Aguimes,78,ES,1580270853,27,27.91,-15.45,66.0,5.82
Ankazoabo,4,MG,1580270854,95,-22.28,44.52,67.44,3.94
Krasnosel'kup,98,RU,1580270568,97,65.7,82.47,-5.85,10.92
Bhimunipatnam,20,IN,1580270857,83,17.88,83.43,78.8,5.44
Makakilo City,20,US,1580270777,61,21.35,-158.09,80.6,9.17
Surab,0,PK,1580270860,53,28.49,66.26,29.08,7.05
Bonfim,7,BR,1580270861,59,3.08,-59.95,82.99,7.96
Provincia di Mantova,0,IT,1580270273,100,45.17,10.78,41.0,1.12
Requena,100,ES,1580270863,72,39.49,-1.1,59.0,9.17
Pisco,90,PE,1580270288,73,-13.7,-76.22,77.0,4.7
Wamba,38,NG,1580270865,14,8.93,8.6,69.51,3.38
Tabriz,75,IR,1580270868,66,38.08,46.29,15.8,6.93
Esperance,75,AU,1580270861,69,-33.87,121.9,75.2,8.05
Kollam,7,IN,1580270870,69,8.88,76.6,82.4,4.7
Linxia,0,CN,1580270871,32,35.6,103.21,27.0,2.28
Mogadishu,0,SO,1580270872,80,2.04,45.34,78.22,25.34
Nouadhibou,25,MR,1580270553,63,20.93,-17.03,62.6,11.41
San Jeronimo,100,PE,1580270874,93,-11.95,-75.28,41.61,2.51
Saldanha,92,ZA,1580270740,88,-33.01,17.94,64.4,9.17
Fayaoue,100,NC,1580270877,74,-20.65,166.53,78.87,11.21
Ovsyanka,40,RU,1580270878,92,55.96,92.55,17.6,4.47
Margate,33,GB,1580270502,86,51.38,1.39,39.0,10.29
Maragogi,44,BR,1580270428,72,-9.01,-35.22,80.98,11.61
El Sauzal de Rodriguez,0,MX,1580270882,93,31.9,-116.68,57.99,1.66
Chalus,22,IR,1580270883,34,36.66,51.42,35.6,5.46
Logrono,75,ES,1580270885,93,42.47,-2.45,41.0,2.24
Akdepe,0,TM,1580270295,79,42.06,59.38,28.4,2.24
Kota Belud,75,MY,1580270887,70,6.35,116.43,89.6,8.05
Laurel,90,US,1580270888,69,39.1,-76.85,42.8,5.82
Sao Filipe,11,CV,1580270891,67,14.9,-24.5,71.13,18.39
Sambava,49,MG,1580270892,90,-14.27,50.17,72.21,1.72
Lusambo,52,CD,1580270894,90,-4.97,23.45,69.39,2.3
Ous,55,RU,1580270895,89,60.91,61.52,-6.57,4.76
Rafaela,100,AR,1580270896,54,-31.25,-61.49,73.99,4.0
Pevek,100,RU,1580270835,98,69.7,170.31,-11.33,12.73
Nkhotakota,100,MW,1580270899,75,-12.93,34.3,77.4,8.52
Charters Towers,100,AU,1580270900,81,-20.1,146.27,80.24,13.24
Torbay,90,CA,1580270851,100,47.67,-52.73,30.0,5.82
Kamaishi,75,JP,1580270902,93,39.27,141.88,39.2,12.75
Tommot,0,RU,1580270903,86,58.96,126.29,1.8,3.06
Lavrentiya,0,RU,1580270904,67,65.58,-171.0,-12.53,8.75
Alofi,75,NU,1580270728,74,-19.06,-169.92,86.0,5.82
Vardo,40,NO,1580270699,84,70.37,31.11,3.2,4.7
Avarua,84,CK,1580270637,88,-21.21,-159.78,78.8,9.17
Boyolangu,89,ID,1580270412,68,-8.12,111.89,86.22,2.89
Comodoro Rivadavia,20,AR,1580270688,49,-45.87,-67.5,62.6,13.87
Nara,75,JP,1580270911,66,34.69,135.8,57.0,19.46
Vawkavysk,90,BY,1580270912,98,53.16,24.45,33.8,6.71
Teya,100,RU,1580270914,95,60.38,92.63,10.6,4.05
Hwange,82,ZW,1580270916,91,-18.37,26.5,67.5,5.91
Kupang,40,ID,1580270917,74,-10.17,123.58,87.8,12.75
Mayor Pablo Lagerenza,43,PY,1580270918,58,-19.93,-60.77,80.76,5.21
Honiara,20,SB,1580270919,70,-9.43,159.95,89.6,6.93
Klaksvik,0,FO,1580270731,65,62.23,-6.59,32.0,3.36
Borogontsy,3,RU,1580270923,96,62.67,131.17,-22.63,4.83
Atar,0,MR,1580270924,23,20.52,-13.05,71.1,14.14
Quang Ngai,100,VN,1580270925,88,15.12,108.8,71.74,15.84
Umuarama,0,BR,1580270926,79,-23.77,-53.33,72.37,5.06
Kirensk,100,RU,1580270927,86,57.79,108.11,11.37,1.97
Nizhniy Kuranakh,0,RU,1580270928,83,58.84,125.49,3.69,1.79
Kloulklubed,75,PW,1580270929,70,7.04,134.26,86.0,6.93
Chibombo,100,ZM,1580270930,91,-14.66,28.07,62.08,3.51
Kosh-Agach,17,RU,1580270932,71,50.0,88.67,0.79,7.36
San Angelo,1,US,1580270933,65,31.46,-100.44,44.6,4.7
Dayong,40,CN,1580270934,47,25.02,118.29,57.2,4.47
Villaviciosa,90,ES,1580270935,100,43.48,-5.44,51.01,3.36
Porto Walter,100,BR,1580270936,74,-8.27,-72.74,77.29,2.17
Flinders,20,AU,1580270937,45,-34.58,150.86,82.4,11.41
Labuhan,92,ID,1580270938,66,-6.88,112.21,87.22,2.73
Husavik,90,IS,1580270940,92,66.04,-17.34,23.0,3.36
Lamont,1,US,1580270941,81,35.26,-118.91,51.8,2.24
Nemuro,75,JP,1580270924,74,43.32,145.57,30.2,8.05
Sibanicu,0,CU,1580270943,88,21.23,-77.53,66.2,1.12
Kieta,13,PG,1580270771,69,-6.22,155.63,85.32,3.02
Shelburne,75,CA,1580270945,74,44.08,-80.2,30.2,10.29
Spasskoye,100,RU,1580270946,93,44.61,132.8,10.58,6.13
Sittwe,0,MM,1580270947,53,20.15,92.9,67.21,8.5
Real,40,PH,1580270949,69,14.66,121.6,86.0,9.17
Coihueco,0,CL,1580270950,42,-36.62,-71.83,66.2,13.87
Lakhipur,53,IN,1580270951,63,26.03,90.3,63.84,4.47
Kavieng,25,PG,1580270939,75,-2.57,150.8,84.22,6.96
Aklavik,90,CA,1580270905,74,68.22,-135.01,-23.8,2.24
Panguipulli,0,CL,1580270954,62,-39.63,-72.33,55.4,6.93
Chepareria,100,KE,1580270955,92,1.31,35.2,63.99,2.59
Buin,75,CL,1580270644,72,-33.73,-70.75,70.0,13.87
Delta del Tigre,0,UY,1580270958,46,-34.76,-56.39,70.0,6.93
Sinnamary,96,GF,1580270959,84,5.38,-52.95,80.24,18.59
Padang,100,ID,1580270722,91,-0.95,100.35,68.32,0.4
Madawaska,1,US,1580270961,85,47.36,-68.33,12.2,9.17
Russell,1,US,1580270775,59,32.35,-85.2,48.2,3.58
Boulder,1,US,1580270534,54,40.08,-105.35,35.6,10.92
Gravdal,40,NO,1580270694,74,68.12,13.5,28.4,26.4
Port Augusta,0,AU,1580270966,20,-32.5,137.77,102.99,9.17
Abu Samrah,75,SY,1580270967,89,35.3,37.18,46.15,3.76
Carutapera,90,BR,1580270761,81,-1.2,-46.02,81.91,12.86
Bethel,90,US,1580270724,74,41.37,-73.41,37.99,8.05
Malmyzh,100,RU,1580270970,92,56.52,50.68,1.63,10.78
Taoudenni,0,ML,1580270943,29,22.68,-3.98,63.16,10.87
Buluang,85,PH,1580270600,56,13.31,123.34,84.78,2.44
Uyovu,100,TZ,1580270975,98,-3.28,31.53,62.78,1.48
Tazmalt,100,DZ,1580270825,81,36.39,4.4,48.2,12.75
Longyan,0,CN,1580270977,99,25.11,117.02,55.0,3.76
Tautira,75,PF,1580270976,78,-17.73,-149.15,82.4,14.99
Morant Bay,20,JM,1580270979,78,17.88,-76.41,77.0,2.24
Poya,11,NC,1580270742,83,-21.35,165.15,77.47,17.54
Santa Isabel do Rio Negro,57,BR,1580270981,90,-0.41,-65.02,76.86,1.81
Whitehorse,75,CA,1580270983,79,60.72,-135.05,24.8,19.46
The Valley,20,AI,1580270984,83,18.22,-63.06,78.8,4.7
Scarborough,42,GB,1580270823,86,54.28,-0.4,41.0,14.99
Norman Wells,20,CA,1580270947,68,65.28,-126.83,-20.2,6.93
Olongapo,20,PH,1580270988,65,14.83,120.28,86.0,8.05
Rumoi,100,JP,1580270989,69,43.93,141.64,31.75,12.33
Waipawa,20,NZ,1580270832,60,-41.41,175.52,75.2,14.99
Qaqortoq,0,GL,1580270714,78,60.72,-46.03,10.4,4.7
OEstersund,100,SE,1580270767,92,63.18,14.64,24.8,10.29
Shouguang,97,CN,1580270994,60,36.88,118.74,39.99,1.99
Polovinnoye,0,RU,1580270756,96,54.79,65.99,-14.73,7.94
Rizhao,90,CN,1580270996,61,35.43,119.46,36.66,16.31
Kattivakkam,20,IN,1580270718,78,13.22,80.32,80.6,4.7
Kaeo,58,NZ,1580270571,90,-35.1,173.78,82.99,1.99
Mumford,100,GH,1580271000,92,5.26,-0.76,74.79,1.34
Walvis Bay,90,NA,1580270849,88,-22.96,14.51,64.0,6.93
Millinocket,90,US,1580270909,67,45.66,-68.71,21.99,3.36
San Luis,75,AR,1580270864,57,-33.3,-66.34,77.0,19.46
Bolkhov,65,RU,1580271004,93,53.44,36.0,29.88,7.47
Iqaluit,5,CA,1580270723,67,63.75,-68.51,-27.0,14.99
Marivan,100,IR,1580271007,53,35.52,46.18,36.64,2.46
Changchun,100,CN,1580271008,65,43.88,125.32,6.8,6.71
Mount Gambier,0,AU,1580271009,17,-37.83,140.77,89.6,9.17
Redmond,90,US,1580270734,93,47.67,-122.12,48.99,4.36
Araouane,74,ML,1580271011,22,18.9,-3.53,71.85,14.27
Mackay,40,AU,1580270489,74,-21.15,149.2,87.01,10.29
Candido Mendes,96,BR,1580271013,95,-1.45,-45.72,76.35,3.65
Barra de Tecoanapa,2,MX,1580271015,78,16.52,-98.75,74.84,2.35
Pauini,100,BR,1580271016,96,-7.71,-66.98,74.53,1.88
Cabedelo,40,BR,1580270850,88,-6.98,-34.83,78.8,3.36
Merauke,10,ID,1580271018,50,-8.47,140.33,92.5,12.28
Kindu,100,CD,1580271020,96,-2.95,25.95,68.54,2.19
Port Keats,92,AU,1580271021,70,-14.25,129.55,89.19,14.56
Comarapa,99,BO,1580271022,93,-17.9,-64.48,57.85,2.73
Te Anau,76,NZ,1580270963,74,-45.42,167.72,57.11,9.86
Yinchuan,0,CN,1580270972,52,38.47,106.27,30.52,3.33
Fairview,90,US,1580271025,48,40.81,-74.0,39.99,9.17
Weyburn,100,CA,1580270826,93,49.67,-103.85,28.99,2.1
Luderitz,0,NA,1580270827,78,-26.65,15.16,65.01,27.81
Inuvik,90,CA,1580270622,74,68.35,-133.72,-23.8,2.24
Puerto Escondido,20,MX,1580271031,74,15.85,-97.07,78.8,2.55
Patan,20,NP,1580271032,71,27.67,85.33,55.4,0.49
Geraldton,0,AU,1580271033,57,-28.77,114.6,78.8,13.87
Bytow,75,PL,1580271034,100,54.17,17.49,35.01,14.99
Salta,66,AR,1580271036,88,-24.79,-65.41,71.6,3.36
La Solana,98,ES,1580271037,96,38.94,-3.24,50.0,3.0
Waiouru,100,NZ,1580271038,96,-39.48,175.67,61.45,4.09
Flin Flon,100,CA,1580270877,96,54.77,-101.86,10.67,4.47
Vangaindrano,17,MG,1580271040,86,-23.35,47.6,71.42,3.31
Beyneu,95,KZ,1580271042,86,45.32,55.2,36.14,8.37
Jurbarkas,100,LT,1580271043,96,55.08,22.77,34.97,11.07
Gorontalo,40,ID,1580271044,59,0.54,123.06,88.86,6.69
Balabac,100,PH,1580271045,71,7.99,117.06,82.31,6.44
Springdale,90,US,1580270949,100,36.19,-94.13,42.01,9.17
Dwarka,0,IN,1580270776,53,22.24,68.97,68.72,12.1
Mandal,0,IN,1580271048,55,25.45,74.57,54.93,3.47
Nizhniy Tsasuchey,39,RU,1580271050,84,50.52,115.13,7.25,5.12
Acapulco de Juarez,5,MX,1580270867,74,16.86,-99.89,78.8,5.82
Chifeng,99,CN,1580270989,58,42.27,118.96,19.96,14.05
Lata,40,PT,1580271032,93,40.16,-8.33,57.99,5.82
Oussouye,14,SN,1580270822,94,12.48,-16.55,69.8,2.24
Grand-Santi,61,GF,1580270483,95,4.25,-54.38,73.6,3.78
Puerto del Rosario,36,ES,1580271056,77,28.5,-13.86,62.6,8.05
Arman,100,RU,1580270565,95,59.7,150.17,6.69,7.74
Bentiu,8,SS,1580271059,17,9.23,29.83,62.37,5.32
Kalikapur,75,IN,1580270895,88,22.62,86.28,68.0,1.07
Montevideo,0,UY,1580271061,46,-34.83,-56.17,70.0,6.93
Mbanza-Ngungu,88,CD,1580271062,97,-5.25,14.87,69.26,2.59
Tral,100,IN,1580271063,97,33.93,75.1,29.62,2.08
Bubaque,42,GW,1580270950,75,11.28,-15.83,76.98,9.51
Cidreira,57,BR,1580270823,83,-30.18,-50.21,74.75,19.71
Ayan,0,RU,1580271068,72,56.45,138.17,2.34,10.22
Maceio,13,BR,1580270706,83,-9.67,-35.74,77.0,2.24
Verkhoyansk,36,RU,1580271073,68,67.54,133.38,-28.35,2.46
Zliten,0,LY,1580270946,56,32.47,14.57,55.89,7.45
Stillwater,90,US,1580271000,92,36.12,-97.06,34.0,11.41
Tongchuanshi,0,CN,1580271077,36,35.08,109.09,39.2,4.29
La Ronge,90,CA,1580270946,92,55.1,-105.28,21.2,3.36
Iberia,90,US,1580271079,82,29.95,-91.75,57.99,5.82
Grover Beach,1,US,1580271080,87,35.12,-120.62,57.2,6.93
Pitimbu,40,BR,1580270731,88,-7.47,-34.81,78.8,3.36
Brae,15,GB,1580270871,79,60.4,-1.35,35.6,2.24
Abha,40,SA,1580271079,87,18.22,42.51,53.6,12.75
Palmerston,76,AU,1580270737,78,-12.49,130.98,84.0,5.82
Mago,2,RU,1580271087,86,53.25,140.18,5.38,3.06
Kolobrzeg,100,PL,1580271091,95,54.18,15.58,36.0,14.54
Ilebo,82,CD,1580271092,80,-4.32,20.58,70.9,1.92
Longyearbyen,40,SJ,1580271093,77,78.22,15.64,6.8,16.11
Yuli,25,NG,1580271094,16,9.7,10.27,66.67,8.25
Grants Pass,90,US,1580271096,76,42.44,-123.33,48.2,4.7
Eskil,27,TR,1580271097,92,38.4,33.41,36.91,6.26
Kahului,40,US,1580270930,51,20.89,-156.47,80.6,13.87
Corinth,20,GR,1580271099,93,37.94,22.96,55.0,2.24
Hobyo,25,SO,1580270765,72,5.35,48.53,73.11,16.75
Harper,61,LR,1580271104,91,4.38,-7.72,76.32,1.25
Westport,90,US,1580270471,74,41.14,-73.36,39.2,8.05
Sira,21,IN,1580271106,52,13.75,76.91,71.56,2.55
Eitorf,75,DE,1580271107,80,50.77,7.45,42.01,13.87
Ramsar,0,IR,1580271108,53,36.92,50.64,37.4,2.24
Praia da Vitoria,75,PT,1580271052,93,38.73,-27.07,62.6,26.87
Dali,45,CN,1580270772,54,25.7,100.18,48.61,2.82
Kaduqli,21,SD,1580271112,16,11.02,29.72,62.35,14.29
Vostok,4,RU,1580271113,84,46.49,135.88,21.27,3.8
Yining,20,CN,1580270743,59,29.04,114.56,47.5,0.94
Dunedin,100,NZ,1580270901,71,-45.87,170.5,68.0,1.99
Mongo,0,TD,1580271118,14,12.18,18.69,57.78,5.1
Arrondissement de Bourg-en-Bresse,75,FR,1580271119,70,46.17,5.17,46.4,6.93
Nosy Varika,71,MG,1580271120,78,-20.58,48.53,73.96,3.62
Yar-Sale,100,RU,1580270776,92,66.83,70.83,-6.77,20.31
Nanortalik,69,GL,1580270743,66,60.14,-45.24,24.4,14.88
Novikovo,100,RU,1580270851,98,51.15,37.89,34.05,6.22
Quatre Cocos,40,MU,1580271126,78,-20.21,57.76,77.0,3.78
Emerald,75,AU,1580270659,55,-23.53,148.17,89.6,10.29
La Macarena,4,CO,1580271129,63,2.18,-73.78,77.49,2.55
Severo-Kuril'sk,100,RU,1580271024,85,50.68,156.12,25.9,3.33
Posse,100,BR,1580271131,86,-14.09,-46.37,70.7,1.66
Raudeberg,100,NO,1580270908,64,61.99,5.14,37.4,3.36
Velykyy Burluk,100,UA,1580271133,98,50.04,37.4,35.37,10.8
Safaga,0,EG,1580271134,65,26.73,33.94,47.84,2.86
Stykkisholmur,0,IS,1580271136,81,65.08,-22.73,21.97,6.17
Kulykivka,100,UA,1580271137,95,51.37,31.65,31.21,10.0
Chany,66,RU,1580270728,96,55.31,76.76,-11.33,11.05
Yangi Marg`ilon,0,UZ,1580270811,74,40.43,71.72,33.8,4.7
Ojinaga,1,MX,1580271140,34,29.57,-104.42,50.0,8.05
Grand Gaube,75,MU,1580270890,94,-20.01,57.66,77.0,5.91
Bambous Virieux,40,MU,1580271143,78,-20.34,57.76,77.0,1.97
Udachny,0,RU,1580271144,77,66.42,112.4,-0.4,4.47
Karratha,87,AU,1580270795,75,-20.74,116.85,85.69,10.18
Dudinka,100,RU,1580270952,78,69.41,86.18,8.6,6.71
Angoche,100,MZ,1580271147,97,-16.23,39.91,72.9,4.41
Peniche,75,PT,1580270782,100,39.36,-9.38,59.0,10.29
Sukumo,3,JP,1580271150,66,32.93,132.73,53.8,20.71
Sargatskoye,97,RU,1580271151,96,55.61,73.5,-5.55,11.48
Anito,90,PH,1580271152,74,12.45,125.29,80.76,4.65
La Providencia,5,MX,1580271153,36,28.72,-111.58,64.99,6.93
Coyhaique,40,CL,1580271154,81,-45.58,-72.07,46.4,7.2
Mount Barker,0,AU,1580271155,25,-35.07,138.87,100.0,6.93
Staryy Nadym,100,RU,1580271156,93,65.61,72.68,-6.79,19.06
Haimen,0,CN,1580271158,50,23.19,116.61,51.8,8.95
North Myrtle Beach,1,US,1580270929,93,33.82,-78.68,43.0,1.01
Saint-Augustin,0,CA,1580271160,88,51.23,-58.65,10.85,9.64
Lindi,40,TZ,1580271161,100,-10.0,39.72,77.0,2.42
Ferme-Neuve,0,CA,1580270882,92,46.7,-75.45,9.43,4.18
Tabuk,100,PH,1580270744,72,17.42,121.44,76.98,7.83
Halifax,90,CA,1580270316,100,44.65,-63.57,28.99,14.99
Hong Kong,0,HK,1580270897,40,22.29,114.16,60.01,8.05
New Glasgow,100,CA,1580271087,92,45.58,-62.65,30.0,8.01
Beringovskiy,96,RU,1580270921,95,63.05,179.32,0.23,3.24
Grass Valley,20,US,1580271170,93,39.22,-121.06,53.6,3.36
Fort Nelson,75,CA,1580270942,84,58.81,-122.7,-0.4,2.73
Tamandare,44,BR,1580271172,72,-8.76,-35.1,80.98,11.61
Ayr,40,GB,1580271173,93,55.46,-4.63,39.0,12.75
Erdenet,0,MN,1580271175,87,49.03,104.08,2.23,4.52
Senno,99,RU,1580271176,90,59.53,33.92,21.99,8.1
Den Helder,90,NL,1580271086,81,52.96,4.76,43.0,23.04
OErnskoeldsvik,100,SE,1580271178,100,63.29,18.72,30.2,10.29
Kirakira,100,SB,1580271179,78,-10.45,161.92,83.01,2.19
Mil'kovo,1,RU,1580271180,84,54.72,158.62,21.13,0.96
Plouzane,75,FR,1580271111,93,48.38,-4.62,46.99,6.93
Lantawan,20,PH,1580271183,62,10.62,123.98,87.8,6.93
Lorengau,76,PG,1580271031,79,-2.02,147.27,84.0,14.38
Smirnykh,81,RU,1580271185,89,49.75,142.83,12.33,3.09
Svetlogorsk,100,BY,1580271187,93,52.63,29.73,32.38,9.89
Tam Ky,75,VN,1580271188,78,15.57,108.48,71.6,6.93
Urubicha,100,BO,1580271189,81,-15.38,-62.95,77.27,1.54
Marystown,100,CA,1580270775,87,47.17,-55.15,30.79,16.71
Dingli,40,MT,1580271191,93,35.86,14.38,57.0,10.29
Ostrovnoy,18,RU,1580271086,93,68.05,39.51,3.87,4.25
Impfondo,92,CG,1580271194,44,1.64,18.07,69.37,1.7
Guapiles,75,CR,1580271195,94,10.22,-83.79,75.0,3.36
Goubellat,20,TN,1580271196,66,36.54,9.66,51.8,8.05
Goderich,93,CA,1580270928,79,43.75,-81.72,32.0,1.01
Manzhouli,0,CN,1580271198,87,49.6,117.43,2.8,2.68
Avanuorri,0,NO,1580271199,72,71.0,24.66,14.0,31.09
Uniara,0,IN,1580271200,54,26.15,75.22,56.57,4.45
Bridgwater,40,GB,1580271202,80,51.13,-3.0,44.01,16.11
Muros,75,ES,1580270928,100,42.78,-9.06,60.01,10.29
Dicabisagan,94,PH,1580271204,84,17.08,122.42,74.71,10.02
Ancud,0,CL,1580271001,75,-41.87,-73.82,46.4,5.82
Birakan,0,RU,1580271206,84,49.02,131.7,8.46,3.96
Yulara,40,AU,1580270919,22,-25.24,130.99,102.2,17.22
Shihezi,11,CN,1580270502,90,44.3,86.03,9.34,4.16
Rantepao,100,ID,1580271072,58,-2.97,119.9,85.37,1.16
Ponnani,20,IN,1580271211,78,10.77,75.93,77.0,4.7
Kenai,90,US,1580271212,85,60.55,-151.26,18.0,18.34
Oranjemund,34,NA,1580270852,94,-28.55,16.43,60.17,8.84
Twin Falls,90,US,1580271214,100,42.56,-114.46,36.0,5.82
Malartic,90,CA,1580271215,84,48.13,-78.13,8.6,6.93
Azuaga,99,ES,1580271216,95,38.27,-5.68,50.0,2.57
Petropavlovka,0,RU,1580271219,85,50.61,105.32,1.92,3.24
Calvia,13,ES,1580271220,93,39.57,2.51,55.99,1.12
Acheng,77,CN,1580271221,65,45.55,126.98,8.6,15.66
Mahabalipuram,20,IN,1580271222,78,12.63,80.17,80.6,4.7
Ucluelet,91,CA,1580271223,88,48.93,-125.55,48.0,3.0
Nyurba,100,RU,1580271185,89,63.28,118.33,4.96,5.86
George Town,20,MY,1580271225,59,5.41,100.34,89.6,10.29
Pacific Grove,90,US,1580271226,87,36.62,-121.92,55.0,3.36
Anadyr,75,RU,1580270669,91,64.75,177.48,1.4,6.71
Bikapur,48,IN,1580271229,79,26.6,82.13,59.34,7.18
Salinopolis,64,BR,1580270824,78,-0.61,-47.36,82.22,14.36
Zaraza,37,VE,1580271231,85,9.35,-65.32,73.49,7.9
Abnub,0,EG,1580271233,68,27.27,31.15,45.81,6.98
Hervey Bay,40,AU,1580271234,58,-25.3,152.85,90.0,11.41
Urukh,90,RU,1580271236,100,43.29,44.03,30.2,6.71
Rio Gallegos,87,AR,1580271078,61,-51.62,-69.22,46.4,21.92
Dombarovskiy,64,RU,1580271238,80,50.76,59.54,-2.16,5.82
Port Hawkesbury,90,CA,1580271240,92,45.62,-61.35,32.0,6.93
Lebu,0,CL,1580270721,66,-37.62,-73.65,53.08,10.63
Limbazi,100,LV,1580271243,97,57.51,24.72,35.01,4.0
Cockburn Town,0,TC,1580271207,70,21.46,-71.14,77.67,8.41
Banepa,20,NP,1580270818,71,27.63,85.52,55.4,0.49
Sept-Iles,5,CA,1580271247,83,50.2,-66.38,-5.8,2.24
Utete,81,TZ,1580271248,97,-7.99,38.76,73.31,0.69
Dubbo,33,AU,1580271249,17,-32.25,148.62,100.4,4.7
Sulingen,75,DE,1580271250,80,52.68,8.8,39.99,16.11
Prieska,94,ZA,1580271251,13,-29.66,22.75,66.02,3.13
Sarangani,30,PH,1580271252,74,5.4,125.46,83.14,8.46
Necochea,100,AR,1580270720,99,-38.55,-58.74,64.0,1.99
Mazabuka,39,ZM,1580271255,96,-15.86,27.75,63.32,5.41
Novoagansk,97,RU,1580270796,97,61.94,76.66,-19.39,10.6
Weatherford,90,US,1580271145,75,32.76,-97.8,43.0,19.46
Anloga,20,GH,1580270806,94,5.79,0.9,77.0,2.24
Saulkrasti,90,LV,1580271259,93,57.26,24.41,37.4,6.93
Ibi,62,ES,1580271260,67,38.63,-0.57,62.01,9.17
Altagracia de Orituco,4,VE,1580271261,94,9.86,-66.38,64.22,3.87
Dalvik,90,IS,1580271262,92,65.97,-18.53,23.0,5.82
Kasongo-Lunda,100,CD,1580271264,98,-6.47,16.82,67.48,1.72
Mlonggo,20,ID,1580271265,62,-6.53,110.7,91.0,10.29
Moron,0,AR,1580271145,44,-34.65,-58.62,82.0,6.93
Oktyabrskoye,90,RU,1580270672,100,43.06,44.74,26.6,6.71
Alice,1,US,1580271268,39,27.75,-98.07,69.8,11.41
Ahipara,100,NZ,1580270963,88,-35.17,173.17,69.22,11.52
Gayeri,48,BF,1580271272,8,12.65,0.49,67.66,7.7
Road Town,20,VG,1580271090,74,18.42,-64.62,80.6,6.93
Waitati,100,NZ,1580271274,70,-45.75,170.57,68.0,1.99
Touros,40,BR,1580270815,88,-5.2,-35.46,78.8,2.24
Yola,0,NG,1580271276,20,9.2,12.48,65.62,1.63
Otradnoye,75,RU,1580271277,92,59.78,30.82,30.2,11.18
Santa Catarina de Tepehuanes,0,MX,1580271278,31,25.35,-105.73,46.6,5.73
Astana,20,KZ,1580271245,75,51.18,71.45,-13.0,8.95
Penzance,79,GB,1580271123,86,50.12,-5.54,48.0,11.41
Moldava nad Bodvou,90,SK,1580271282,92,48.61,21.0,30.99,4.7
Hede,100,CN,1580271283,77,33.77,120.25,38.26,20.83
